{
	"3": [{"name":"上元门","lat":"32.1181034","lng":"118.7645546"},{"name":"秣周东路","lat":"31.8715595","lng":"118.8260443"},{"name":"星火路","lat":"32.1600469","lng":"118.6917809"},{"name":"东南大学成贤学院","lat":"32.1585695","lng":"118.7031655"},{"name":"泰冯路","lat":"32.1556341","lng":"118.7131095"},{"name":"天润城","lat":"32.1529308","lng":"118.7284990"},{"name":"柳洲东路","lat":"32.1418799","lng":"118.7415231"},{"name":"五塘广场","lat":"32.1127226","lng":"118.7723438"},{"name":"鸡鸣寺","lat":"32.0593744","lng":"118.7926642"},{"name":"小市","lat":"32.0978272","lng":"118.7801544"},{"name":"夫子庙","lat":"32.0257253","lng":"118.7859909"},{"name":"常府街","lat":"32.0359760","lng":"118.7871067"},{"name":"浮桥","lat":"32.0510451","lng":"118.7907759"},{"name":"大行宫","lat":"32.0429584","lng":"118.7893919"},{"name":"武定门","lat":"32.0161649","lng":"118.7894026"},{"name":"雨花门","lat":"32.0061896","lng":"118.7871174"},{"name":"卡子门","lat":"31.9971503","lng":"118.7904165"},{"name":"明城大道","lat":"31.9791419","lng":"118.7953464"},{"name":"大明路","lat":"31.9883877","lng":"118.7949280"},{"name":"宏运大道","lat":"31.9610267","lng":"118.7991969"},{"name":"胜太西路","lat":"31.9463328","lng":"118.8017327"},{"name":"九龙湖","lat":"31.9182794","lng":"118.8156588"},{"name":"诚信大道","lat":"31.9096823","lng":"118.8243062"},{"name":"天元西路","lat":"31.9297167","lng":"118.8036961"},{"name":"东南大学九龙湖校区","lat":"31.8986257","lng":"118.8251222"},{"name":"星火路站","lat":"32.1601335","lng":"118.6910853"}],
	"1": [{"name":"南京交院","lat":"31.9148326","lng":"118.8996929"},{"name":"百家湖","lat":"31.9322329","lng":"118.8158236"},{"name":"花神庙","lat":"31.9799913","lng":"118.7803455"},{"name":"玄武门","lat":"32.0719481","lng":"118.7788602"},{"name":"河定桥","lat":"31.9545472","lng":"118.8147854"},{"name":"张府园","lat":"32.0317926","lng":"118.7787266"},{"name":"南京南站","lat":"31.9731294","lng":"118.7922564"},{"name":"软件大道","lat":"31.978996","lng":"118.7693372"},{"name":"小龙湾","lat":"31.9318128","lng":"118.8276119"},{"name":"中国药科大学","lat":"31.8998455","lng":"118.9090926"},{"name":"南医大·江苏省经贸学院","lat":"31.9357013","lng":"118.8853148"},{"name":"胜太路","lat":"31.9459116","lng":"118.8158633"},{"name":"竹山路","lat":"31.9341066","lng":"118.8394193"},{"name":"天隆寺","lat":"31.9801824","lng":"118.7576811"},{"name":"双龙大道","lat":"31.9661294","lng":"118.8119223"},{"name":"中华门","lat":"32.0087918","lng":"118.7693664"},{"name":"新街口","lat":"32.0438535","lng":"118.7788661"},{"name":"三山街","lat":"32.0250313","lng":"118.7764265"},{"name":"鼓楼","lat":"32.0607887","lng":"118.7789562"},{"name":"新模范马路","lat":"32.0806205","lng":"118.778857"},{"name":"珠江路","lat":"32.0525814","lng":"118.7788416"},{"name":"南京站","lat":"32.0892375","lng":"118.7907519"},{"name":"红山动物园","lat":"32.09787","lng":"118.7968224"},{"name":"迈皋桥","lat":"32.1049847","lng":"118.8045204"},{"name":"安德门","lat":"31.9935487","lng":"118.7563628"},{"name":"龙眠大道","lat":"31.942129","lng":"118.8720455"},{"name":"天印大道","lat":"31.9398876","lng":"118.8584741"}],
	"2": [{"name":"明故宫","lat":"32.0411496","lng":"118.8137373"},{"name":"兴隆大街","lat":"32.0204430","lng":"118.7316056"},{"name":"西安门","lat":"32.0421540","lng":"118.7997555"},{"name":"钟灵街","lat":"32.0412705","lng":"118.8636827"},{"name":"元通","lat":"31.9980506","lng":"118.7163010"},{"name":"汉中门","lat":"32.0449226","lng":"118.7618998"},{"name":"莫愁湖","lat":"32.0394146","lng":"118.7535861"},{"name":"奥体东","lat":"32.0078672","lng":"118.7241953"},{"name":"上海路","lat":"32.0443327","lng":"118.7709794"},{"name":"雨润大街","lat":"31.9860214","lng":"118.7175765"},{"name":"云锦路","lat":"32.0370758","lng":"118.7419899"},{"name":"苜蓿园","lat":"32.0421488","lng":"118.8300157"},{"name":"中山陵","lat":"32.0397486","lng":"118.8431913"},{"name":"孝陵卫","lat":"32.0377379","lng":"118.8532631"},{"name":"集庆门大街","lat":"32.0297908","lng":"118.7338868"},{"name":"新街口","lat":"32.0438532","lng":"118.7788645"},{"name":"大行宫","lat":"32.0429584","lng":"118.7893919"}],
	"10": [{"name":"奥体中心","lat":"32.0108951","lng":"118.7129954"},{"name":"小行","lat":"31.9844240","lng":"118.7395281"},{"name":"元通","lat":"31.9980506","lng":"118.7163010"},{"name":"中胜","lat":"31.9900506","lng":"118.7279988"},{"name":"江心洲","lat":"32.0342284","lng":"118.6985295"},{"name":"绿博园","lat":"32.0260170","lng":"118.7122791"},{"name":"梦都大街","lat":"32.0177899","lng":"118.7167106"},{"name":"安德门","lat":"31.9935487","lng":"118.7563628"},{"name":"临江","lat":"32.0590720","lng":"118.6609290"},{"name":"龙华路","lat":"32.0668939","lng":"118.6302040"},{"name":"南京工业大学","lat":"32.0685210","lng":"118.6432207"},{"name":"浦口万汇城","lat":"32.0641049","lng":"118.6517154"},{"name":"文德路","lat":"32.0598107","lng":"118.6217634"},{"name":"雨山路","lat":"32.0467176","lng":"118.6102300"}]
}